{
  "id": "R10",
  "nombre": "Las Américas - Villas del Mar (Vía Kabah)",
  "tarifa": 10,
  "tipo": "Transporte",
  "frecuencia_minutos": 20,
  "horario": {
    "inicio_oficial": "04:00-23:00"
  },
  "social_alerts": [
    "⚠️ Esta ruta NO llega al Aeropuerto."
  ],
  "last_updated": "2026-04-01T22:20:23Z",
  "paradas": [
    {
      "id": "R10_001",
      "nombre": "Plaza Las Américas",
      "lat": 21.1472,
      "lng": -86.8234,
      "orden": 1,
      "landmarks": "Av. Sayil"
    },
    {
      "id": "R10_002",
      "nombre": "Av. Nichupté",
      "lat": 21.1412,
      "lng": -86.8315,
      "orden": 2,
      "landmarks": "Cerca de Pabellón Caribe"
    },
    {
      "id": "R10_003",
      "nombre": "Av. Kabah",
      "lat": 21.1355,
      "lng": -86.8412,
      "orden": 3,
      "landmarks": "Supermercado Soriana"
    },
    {
      "id": "R10_004",
      "nombre": "Av. La Luna",
      "lat": 21.1285,
      "lng": -86.8485,
      "orden": 4,
      "landmarks": "Plaza La Luna"
    },
    {
      "id": "R10_005",
      "nombre": "Av. Las Torres",
      "lat": 21.1155,
      "lng": -86.8555,
      "orden": 5,
      "landmarks": "Parque Kabah Sur"
    },
    {
      "id": "R10_006",
      "nombre": "Av. Huayacán",
      "lat": 21.1025,
      "lng": -86.8612,
      "orden": 6,
      "landmarks": "Zona Residencial"
    },
    {
      "id": "R10_007",
      "nombre": "Carr. Federal 307",
      "lat": 21.0855,
      "lng": -86.8525,
      "orden": 7,
      "landmarks": "Entrada Bonfil"
    },
    {
      "id": "R10_008",
      "nombre": "UT Cancún",
      "lat": 21.0555,
      "lng": -86.8415,
      "orden": 8,
      "landmarks": "Universidad"
    }
  ],
  "color": "#FF6B6B",
  "color_id": "R1"
}